[
  {
    "name": "R",
    "city": "San Francisco",
    "lat": 37.7749,
    "lng": -122.4194
  },
  {
    "name": "N",
    "city": "New York",
    "lat": 40.7127,
    "lng": -74.006
  },
  {
    "name": "T",
    "city": "Tallinn",
    "lat": 59.4372,
    "lng": 24.7573
  },
  {
    "name": "J",
    "city": "Prince Of Wales Island",
    "lat": 55.631944,
    "lng": -132.9075
  },
  {
    "name": "N",
    "city": "Forest Grove",
    "lat": 45.519,
    "lng": -123.1111
  },
  {
    "name": "R",
    "city": "Sanfrancisco",
    "lat": 37.7749,
    "lng": -122.4194
  },
  {
    "name": "N",
    "city": "Newyork",
    "lat": 40.7127,
    "lng": -74.006
  },
  {
    "name": "T",
    "city": "Talin",
    "lat": 59.4372,
    "lng": 24.7573
  },
  {
    "name": "J",
    "city": "\"prince Of Wales Island\"",
    "lat": 55.631944,
    "lng": -132.9075
  },
  {
    "name": "N",
    "city": "Forest Grove",
    "lat": 45.519,
    "lng": -123.1111
  },
  {
    "name": "N",
    "city": "India",
    "lat": 22.3511,
    "lng": 78.6677
  },
  {
    "name": "T",
    "city": "London",
    "lat": 51.5072,
    "lng": -0.1276
  },
  {
    "name": "G",
    "city": "Paris",
    "lat": 48.8566,
    "lng": 2.3522
  },
  {
    "name": "G",
    "city": "Houston",
    "lat": 29.76,
    "lng": -95.37
  },
  {
    "name": "T",
    "city": "Tallinn",
    "lat": 59.4372,
    "lng": 24.7573
  },
  {
    "name": "R",
    "city": "San Francisco",
    "lat": 37.7793,
    "lng": -122.4193
  },
  {
    "name": "J",
    "city": "Prince Of Wales Island",
    "lat": 55.631944,
    "lng": -132.9075
  },
  {
    "name": "N",
    "city": "New York",
    "lat": 40.7127,
    "lng": -74.006
  },
  {
    "name": "L",
    "city": "Taipei",
    "lat": 25.033,
    "lng": 121.565
  },
  {
    "name": "M",
    "city": "Paris",
    "lat": 48.8566,
    "lng": 2.3522
  },
  {
    "name": "N",
    "city": "London",
    "lat": 51.5072,
    "lng": -0.1276
  },
  {
    "name": "i",
    "city": "new york",
    "lat": 40.7127,
    "lng": -74.006
  },
  {
    "name": "o",
    "city": "paris",
    "lat": null,
    "lng": null
  },
  {
    "name": "u",
    "city": "london",
    "lat": null,
    "lng": null
  },
  {
    "name": "H",
    "city": "Delhi",
    "lat": 28.6328,
    "lng": 77.2198
  },
  {
    "name": "A",
    "city": "Paris",
    "lat": 48.8566,
    "lng": 2.3522
  },
  {
    "name": "J",
    "city": "Boston",
    "lat": 42.3554,
    "lng": -71.0605
  },
  {
    "name": "N",
    "city": "Vancouver",
    "lat": 49.2609,
    "lng": -123.114
  },
  {
    "name": "A",
    "city": "Vietnam",
    "lat": 15.9267,
    "lng": 107.9651
  },
  {
    "name": "A",
    "city": "Nigeria",
    "lat": 9.6,
    "lng": 8
  },
  {
    "name": "L",
    "city": "Portugal",
    "lat": 39.6622,
    "lng": -8.1354
  },
  {
    "name": "S",
    "city": "Columbia",
    "lat": 4.0999,
    "lng": -72.9088
  },
  {
    "name": "H",
    "city": "Scotland",
    "lat": 56.7861,
    "lng": -4.1141
  },
  {
    "name": "B",
    "city": "Nowhere",
    "lat": 35.1592,
    "lng": -98.4423
  },
  {
    "name": "T",
    "city": "Estonia",
    "lat": 58.7524,
    "lng": 25.3319
  },
  {
    "name": "T",
    "city": "Lagos",
    "lat": 6.5244,
    "lng": 3.3792
  },
  {
    "name": "F",
    "city": "Miami",
    "lat": 25,
    "lng": -71
  },
  {
    "name": "D",
    "city": "New York",
    "lat": 40.7127,
    "lng": -74.006
  },
  {
    "name": "C",
    "city": "San Francisco",
    "lat": 37.7793,
    "lng": -122.4193
  },
  {
    "name": "C",
    "city": "Cleveland",
    "lat": 25,
    "lng": -71
  },
  {
    "name": "B",
    "city": "Miami",
    "lat": 25.7742,
    "lng": -80.1936
  },
  {
    "name": "A",
    "city": "Hyderabad",
    "lat": 25,
    "lng": -71
  },
  {
    "name": "R",
    "city": "Hyderabad",
    "lat": 17.3606,
    "lng": 78.4741
  },
  {
    "name": "T",
    "city": "Forest Grove",
    "lat": 45.519,
    "lng": -123.1111
  },
  {
    "name": "H",
    "city": "Ann Arbor",
    "lat": 25,
    "lng": -71
  },
  {
    "name": "L",
    "city": "Lisbon",
    "lat": 25,
    "lng": -71
  },
  {
    "name": "M",
    "city": "Cameroon",
    "lat": 25,
    "lng": -71
  },
  {
    "name": "G",
    "city": "Lagos",
    "lat": 6.5244,
    "lng": 3.3792
  },
  {
    "name": "E",
    "city": "Lagos",
    "lat": 6.5244,
    "lng": 3.3792
  },
  {
    "name": "J",
    "city": "South Africa",
    "lat": 25,
    "lng": -71
  },
  {
    "name": "G",
    "city": "East Lansing",
    "lat": 25,
    "lng": -71
  },
  {
    "name": "L",
    "city": "Nairobi",
    "lat": -1.286389,
    "lng": 36.817223
  },
  {
    "name": "J",
    "city": "Kenya",
    "lat": 25,
    "lng": -71
  },
  {
    "name": "- J",
    "city": "South Africa",
    "lat": -28.8166,
    "lng": 24.9916
  },
  {
    "name": "- G",
    "city": "East Lansing",
    "lat": 42.732,
    "lng": -84.4722
  },
  {
    "name": "- N",
    "city": "New York",
    "lat": 40.7127,
    "lng": -74.006
  },
  {
    "name": "- L",
    "city": "Nairobi",
    "lat": -1.286389,
    "lng": 36.817223
  },
  {
    "name": "- J",
    "city": "Kenya",
    "lat": 1.442,
    "lng": 38.4314
  },
  {
    "name": "- A",
    "city": "Lagos",
    "lat": 6.5244,
    "lng": 3.3792
  },
  {
    "name": "No",
    "city": "Forest Grove",
    "lat": 45.519,
    "lng": -123.1111
  },
  {
    "name": "Ne",
    "city": "New York",
    "lat": 40.7127,
    "lng": -74.006
  }
]